<?xml version="1.0"?>
<Records>
  

    <lodge>
        
        <name>First Street Towers</name>
        <address>Purdue University</address>
        <img>images/maps/lodging/firststreet/firststreet1.jpg</img>
        <img2>images/maps/lodging/firststreet/firststreet3.jpg</img2>
        <img3>images/maps/lodging/firststreet/firststreet2.jpg</img3>
        <caption>First Street Towers</caption>
        <lat>40.42487</lat>
        <lng>-86.92457</lng>
        
    </lodge>

    <lodge>
        <name>Cary Quadrangle</name>
        <address>Purdue University</address>
        <img>images/maps/lodging/cary/cary1.jpg</img>
        <img2>images/maps/lodging/cary/cary2.jpg</img2>
        <img3>images/maps/lodging/cary/cary3.jpg</img3>
        <caption>Cary Quadrangle</caption>
        <lat>40.43195</lat>
        <lng>-86.91820</lng>
        
   </lodge>
    
    <!--<lodge>
        <name>Wiley</name>
        <address>Purdue University</address>
        <img></img>
        <img2></img2>
        <img3></img3>
        <caption>Wiley</caption>
        <lat>40.42973</lat>
        <lng>-86.92083</lng>
        
   </lodge>-->
    
    <lodge>
        <name>Harrison Hall</name>
        <address>Purdue University</address>
        <img>images/maps/lodging/harrison/harrison1.jpg</img>
        <img2>images/maps/lodging/harrison/harrison2.jpg</img2>
        <img3>images/maps/lodging/harrison/harrison3.jpg</img3>
        <caption>Harrison Hall</caption>
        <lat>40.42496</lat>
        <lng>-86.92685</lng>
        
   </lodge>
    
    <lodge>
        <name>McCutcheon</name>
        <address>Purdue University</address>
        <img>images/maps/lodging/mccutcheon/mccutcheon1.jpg</img>
        <img2>images/maps/lodging/mccutcheon/mccutcheon2.jpg</img2>
        <img3>images/maps/lodging/mccutcheon/mccutcheon3.jpg</img3>
        <caption>McCutcheon</caption>
        <lat>40.42498</lat>
        <lng>-86.92810</lng>
        
   </lodge>
    
    <!--<lodge>
        <name>Owen Hall</name>
        <address>Purdue University</address>
        <img></img>
        <img2></img2>
        <img3></img3>
        <caption>Owen Hall</caption>
        <lat>40.43200</lat>
        <lng>-86.92076</lng>
        
   </lodge>-->

    <lodge>
        <name>Shreve Hall</name>
        <address>Purdue University</address>
        <img>images/maps/lodging/shreve/shreve1.jpg</img>
        <img2>images/maps/lodging/shreve/shreve3.jpg</img2>
        <img3>images/maps/lodging/shreve/shreve2.jpg</img3>
        <caption>Shreve Hall</caption>
        <lat>40.42673</lat>
        <lng>-86.92499</lng>
        
   </lodge>
    
    <lodge>
        <name>Earhart Hall</name>
        <address>Purdue University</address>
        <img>images/maps/lodging/earhart/earhart1.jpg</img>
        <img2>images/maps/lodging/earhart/earhart2.jpg</img2>
        <img3>images/maps/lodging/earhart/earhart3.jpg</img3>
        <caption>Earhart Hall</caption>
        <lat>40.42580</lat>
        <lng>-86.92495</lng>
        
   </lodge>
    
    <lodge>
        <name>Hillenbrand Hall</name>
        <address>Purdue University</address>
        <img>images/maps/lodging/hillenbrand/hillenbrand1.jpg</img>
        <img2>images/maps/lodging/hillenbrand/hillenbrand2.jpg</img2>
        <img3>images/maps/lodging/hillenbrand/hillenbrand3.jpg</img3>
        <caption>Hillenbrand Hall</caption>
        <lat>40.42666</lat>
        <lng>-86.92675</lng>
        
   </lodge>

   <lodge>
        <name>Hilton Garden Inn</name>
        <address>Purdue University</address>
        <img>images/maps/lodging/hilton/hilton1.jpg</img>
        <img2>images/maps/lodging/hilton/hilton2.jpg</img2>
        <img3>images/maps/lodging/hilton/hilton3.jpg</img3>
        <caption>Hilton Garden Inn</caption>
        <lat>40.420640</lat>
        <lng>-86.899964</lng>
   </lodge>

   <lodge>
        <name>Holiday Inn City Centre</name>
        <address>Purdue University</address>
        <img>images/maps/lodging/hiltoncity/hiltoncity1.jpg</img>
        <img2>images/maps/lodging/hiltoncity/hiltoncity2.jpg</img2>
        <img3>images/maps/lodging/hiltoncity/hiltoncity3.jpg</img3>
        <caption>Holiday Inn City Centre</caption>
        <lat>40.417308</lat>
        <lng>-86.891667</lng>
    </lodge>

   <lodge>
        <name>Four Points by Sheraton</name>
        <address>Purdue University</address>
        <img>images/maps/lodging/sheraton/sheraton1.jpg</img>
        <img2>images/maps/lodging/sheraton/sheraton2.jpg</img2>
        <img3>images/maps/lodging/sheraton/sheraton3.jpg</img3>
        <caption>Four Points by Sheraton</caption>
        <lat>40.459523</lat>
        <lng>-86.935474</lng>
   </lodge>

    
</Records>
