<?xml version="1.0"?>
<Records>
  

    <Venue>
        
        <name>Stewart Center</name>
        <address>Purdue University</address>
        <img>images/maps/venues/stew/stew1.jpg</img>
        <img2>images/maps/venues/stew/stew2.jpg</img2>
        <img3>images/maps/venues/stew/stew3.jpg</img3>
        <caption>Stewart Center</caption>
        <lat>40.425062</lat>
        <lng>-86.912777</lng>
        
    </Venue>

    <Venue>
        <name>PMU</name>
        <address>Purdue University</address>
        <img>images/maps/venues/pmu/pmu1.jpg</img>
        <img2>images/maps/venues/pmu/pmu2.jpg</img2>
        <img3>images/maps/venues/pmu/pmu3.jpg</img3>
        <caption>Purdue Memorial Union</caption>
        <lat>40.425078</lat>
        <lng>-86.911082</lng>
        
   </Venue>
    
    <Venue>
        <name>Class 1950</name>
        <address>Purdue University</address>
        <img>images/maps/venues/class50/cl501.jpg</img>
        <img2>images/maps/venues/class50/cl502.jpg</img2>
        <img3>images/maps/venues/class50/cl503.jpg</img3>
        <caption>Class of 1950</caption>
        <lat>40.42625</lat>
        <lng>-86.91501</lng>
        
   </Venue>
    
    
    <Venue>
        <name>Dauch Alumni Center</name>
        <address>Purdue University</address>
        <img>images/maps/venues/dauch/dauch1.jpg</img>
        <img2>images/maps/venues/dauch/dauch2.jpg</img2>
        <img3>images/maps/venues/dauch/dauch3.jpg</img3>
        <caption>Dauch Alumni Center</caption>
        <lat>40.42183</lat>
        <lng>-86.91071</lng>
        
   </Venue>
    
    <Venue>
        <name>Ross Ade</name>
        <address>Purdue University</address>
        <img>images/maps/venues/rossade/rossade1.jpg</img>
        <img2>images/maps/venues/rossade/rossade2.jpg</img2>
        <img3>images/maps/venues/rossade/rossade3.jpg</img3>
        <caption>Ross Ade</caption>
        <lat>40.43395</lat>
        <lng>-86.91835</lng>
        
   </Venue>
    
    <Venue>
        <name>Discovery Park</name>
        <address>Purdue University</address>
        <img>images/maps/venues/discovery/discovery1.jpg</img>
        <img2>images/maps/venues/discovery/discovery2.jpg</img2>
        <img3>images/maps/venues/discovery/discovery3.jpg</img3>
        <caption>Discovery Park</caption>
        <lat>40.42362</lat>
        <lng>-86.92282</lng>
        
   </Venue>
    
    <Venue>
        <name>Engineering</name>
        <address>Purdue University</address>
        <img>images/maps/venues/engineering/engineering1.jpg</img>
        <img2>images/maps/venues/engineering/engineering2.jpg</img2>
        <img3>images/maps/venues/engineering/engineering3.jpg</img3>
        <caption>Engineering</caption>
        <lat>40.42913</lat>
        <lng>-86.91297</lng>
        
   </Venue>

    <Venue>
        <name>Rawls Hall</name>
        <address>Purdue University</address>
        <img>images/maps/venues/rawls/rawls1.jpg</img>
        <img2>images/maps/venues/rawls/rawls2.jpg</img2>
        <img3>images/maps/venues/rawls/rawls3.jpg</img3>
        <caption>Rawls Hall</caption>
        <lat>40.42373</lat>
        <lng>-86.91006</lng>
        
   </Venue>

    <Venue>
        <name>Purdue University Airport</name>
        <address>Purdue University</address>
        <img>images/maps/venues/airport/airport1.jpg</img>
        <img2>images/maps/venues/airport/airport2.jpg</img2>
        <img3>images/maps/venues/airport/airport3.jpg</img3>
        <caption>Purdue University Airport</caption>
        <lat>40.41397</lat>
        <lng>-86.933786</lng>
        
   </Venue>
    
</Records>
